Id,source,latitude,longitude,region,country,admin1,localityName,localityQuality,observationDate,reportingDate,status,disease,serotypes,speciesDescription,sumAtRisk,sumCases,sumDeaths,sumDestroyed,sumSlaughtered,humansGenderDesc,humansAge,humansAffected,humansDeaths
223316,National authorities,30.13417,91.35568,Asia,China,Xizang Zizhiqu,Xizang Zizhiqu,Centroid Admin2,15/07/2016,31/10/2016,Confirmed,Influenza - Avian,H5N1 HPAI,"domestic, duck",,1,,,,,,,
223314,National authorities,23.60237,104.87042,Asia,China,Yunnan Sheng,Yunnan Sheng,Centroid Admin2,15/07/2016,31/10/2016,Confirmed,Influenza - Avian,H5N1 HPAI,"domestic, duck",,1,,,,,,,
223311,National authorities,23.60456,102.95693,Asia,China,Yunnan Sheng,Yunnan Sheng,Centroid Admin2,15/07/2016,31/10/2016,Confirmed,Influenza - Avian,H5N1 HPAI,"domestic, chicken",,1,,,,,,,
223309,National authorities,24.15151,102.2319,Asia,China,Yunnan Sheng,Yunnan Sheng,Centroid Admin2,15/07/2016,31/10/2016,Confirmed,Influenza - Avian,H5N1 HPAI,"domestic, duck",,1,,,,,,,
223269,National authorities,31.83373,116.32334,Asia,China,Anhui Sheng,Anhui Sheng,Centroid Admin2,15/07/2016,31/10/2016,Confirmed,Influenza - Avian,H5N1 HPAI,"domestic, duck, domestic, chicken",,2,,,,,,,
223261,National authorities,31.56883,120.34412,Asia,China,Jiangsu Sheng,Jiangsu Sheng,Centroid Admin2,15/07/2016,31/10/2016,Confirmed,Influenza - Avian,H5N1 HPAI,"domestic, chicken",,1,,,,,,,
223258,National authorities,32.20714,120.85086,Asia,China,Jiangsu Sheng,Jiangsu Sheng,Centroid Admin2,15/07/2016,31/10/2016,Confirmed,Influenza - Avian,H5N1 HPAI,"domestic, chicken",,1,,,,,,,
223256,National authorities,37.74117,115.87669,Asia,China,Hebei Sheng,Hebei Sheng,Centroid Admin2,15/07/2016,31/10/2016,Confirmed,Influenza - Avian,H5N1 HPAI,"domestic, chicken, domestic, duck, domestic, goose",,3,,,,,,,
215431,National authorities,25.68923,99.93993,Asia,China,Yunnan Sheng,Yunnan Sheng,Centroid Admin2,15/12/2015,15/01/2016,Confirmed,Influenza - Avian,H5N1 HPAI,"domestic, chicken, domestic, duck",,3,,,,,0,,
215375,National authorities,31.83373,116.32334,Asia,China,Anhui Sheng,Anhui Sheng,Centroid Admin2,15/12/2015,15/01/2016,Confirmed,Influenza - Avian,H5N1 HPAI,"domestic, duck",,1,,,,,,,
209878,OIE,26.12,105.28,Asia,China,Guizhou Sheng,Farm,Exact,11/01/2016,22/01/2016,Confirmed,Influenza - Avian,H5N1 HPAI,"domestic, unspecified bird",35397,5869,5617,29528,0,,,,
209698,National authorities,30.6854,103.9929,Asia,China,Sichuan Sheng,Moushe Zone,Exact,27/12/2015,14/01/2016,Confirmed,Influenza - Avian,H5N1 HPAI,,,,,,,,,1,
208415,National authorities,38.902123,106.544037,Asia,China,Ningxia Huizu Zizhiqu,Qianjinxilu,Exact,30/06/2015,12/11/2015,Confirmed,Influenza - Avian,H5N1 HPAI,"domestic, chicken",,1,,,,,,,
208409,National authorities,26.566917,106.712907,Asia,China,Guizhou Sheng,Xinlukou Market,Exact,30/06/2015,12/11/2015,Confirmed,Influenza - Avian,H5N1 HPAI,"domestic, chicken",,1,,,,,,,
208408,National authorities,26.563952,106.716257,Asia,China,Guizhou Sheng,Duoyouduo Fair Trade Market,Exact,30/06/2015,12/11/2015,Confirmed,Influenza - Avian,"H5N1 HPAI, H5N2 HPAI","domestic, chicken, domestic, duck",,3,,,,,,,
208407,National authorities,26.583448,106.694752,Asia,China,Guizhou Sheng,Huangjinlu Fair Trade Market,Exact,30/06/2015,12/11/2015,Confirmed,Influenza - Avian,H5N1 HPAI,"domestic, goose",,1,,,,,,,
208406,National authorities,26.56313,106.692904,Asia,China,Guizhou Sheng,Xiangyayuan Market,Exact,30/06/2015,12/11/2015,Confirmed,Influenza - Avian,H5N1 HPAI,"domestic, duck, domestic, goose",,2,,,,,,,
208385,National authorities,28.910376,111.970227,Asia,China,Hunan Sheng,Hanshou County,Exact,30/06/2015,12/11/2015,Confirmed,Influenza - Avian,"H5N6 HPAI, H5N2 HPAI, H5N1 HPAI","domestic, duck, domestic, chicken",,3,,,,,,,
208367,National authorities,32.893568,117.326141,Asia,China,Anhui Sheng,Chengnan market,Exact,30/06/2015,12/11/2015,Confirmed,Influenza - Avian,H5N1 HPAI,"domestic, duck",,1,,,,,,,
208349,National authorities,29.647562,91.073396,Asia,China,Xizang Zizhiqu,Bayi Market,Exact,30/09/2014,09/11/2015,Confirmed,Influenza - Avian,"H5N6 HPAI, H5N1 HPAI","domestic, chicken, domestic, duck",,2,,,,,,,
208321,National authorities,36.620345,101.786381,Asia,China,Qinghai Sheng,Mojiajie Market,Exact,30/09/2014,09/11/2015,Confirmed,Influenza - Avian,H5N1 HPAI,"domestic, duck",,1,,,,,,,
208319,National authorities,23.133,106.413446,Asia,China,Guangxi Zhuangzu Zizhiqu,Jingxi Market,Exact,30/09/2014,09/11/2015,Confirmed,Influenza - Avian,"H5N6 HPAI, H5N1 HPAI, H5N2 HPAI","domestic, duck, domestic, goose",,4,,,,,,,
208317,National authorities,22.112802,106.757995,Asia,China,Guangxi Zhuangzu Zizhiqu,Yinxing Market,Exact,30/09/2014,09/11/2015,Confirmed,Influenza - Avian,"H5N1 HPAI, H5N6 HPAI","domestic, duck, domestic, chicken",,3,,,,,,,
208316,National authorities,21.546324,107.972194,Asia,China,Guangxi Zhuangzu Zizhiqu,Dongxing shi,Exact,30/09/2014,09/11/2015,Confirmed,Influenza - Avian,H5N1 HPAI,"domestic, duck",,1,,,,,,,
208315,National authorities,21.543681,107.970399,Asia,China,Guangxi Zhuangzu Zizhiqu,International Trade Market,Exact,30/09/2014,09/11/2015,Confirmed,Influenza - Avian,"H5N1 HPAI, H5N6 HPAI","domestic, duck, domestic, goose",,2,,,,,,,
208313,National authorities,25.586329,100.228791,Asia,China,Yunnan Sheng,Taixing Market,Exact,30/09/2014,09/11/2015,Confirmed,Influenza - Avian,H5N1 HPAI,"domestic, duck",,1,,,,,,,
208292,National authorities,25.049037,102.795174,Asia,China,Yunnan Sheng,Qinglong cun,Exact,30/09/2014,09/11/2015,Confirmed,Influenza - Avian,"H5N6 HPAI, H5N1 HPAI","domestic, duck, domestic, chicken",,2,,,,,,,
208288,National authorities,26.246969,105.947195,Asia,China,Guizhou Sheng,Dongfang Market,Exact,30/09/2014,09/11/2015,Confirmed,Influenza - Avian,H5N1 HPAI,"domestic, chicken",,1,,,,,,,
208287,National authorities,26.246487,105.928332,Asia,China,Guizhou Sheng,Weststreet great Market,Exact,30/09/2014,09/11/2015,Confirmed,Influenza - Avian,"H5N6 HPAI, H5N1 HPAI","domestic, chicken, domestic, duck",,2,,,,,,,
208286,National authorities,23.361785,113.202325,Asia,China,Guangdong Sheng,Jixing Market,Exact,30/09/2014,09/11/2015,Confirmed,Influenza - Avian,"H5N6 HPAI, H5N1 HPAI","domestic, chicken, domestic, duck, domestic, goose",,3,,,,,,,
208283,National authorities,22.299437,113.487489,Asia,China,Guangdong Sheng,Heping Market,Exact,30/09/2014,09/11/2015,Confirmed,Influenza - Avian,H5N1 HPAI,"domestic, goose",,1,,,,,,,
208277,National authorities,28.843217,112.352286,Asia,China,Hunan Sheng,Yuanjiang,Exact,30/09/2014,09/11/2015,Confirmed,Influenza - Avian,H5N1 HPAI,"domestic, chicken",,1,,,,,,,
208276,National authorities,28.151124,113.010835,Asia,China,Hunan Sheng,Shima Market,Exact,30/09/2014,09/11/2015,Confirmed,Influenza - Avian,H5N1 HPAI,"domestic, duck",,1,,,,,,,
208267,National authorities,31.4738,119.5026,Asia,China,Jiangsu Sheng,Zouqu Zhen,Exact,30/09/2014,09/11/2015,Confirmed,Influenza - Avian,H5N1 HPAI,"domestic, duck",,1,,,,,,,
208255,National authorities,29.652445,91.122952,Asia,China,Xizang Zizhiqu,Yaowangshan Market,Exact,31/12/2014,02/11/2015,Confirmed,Influenza - Avian,H5N1 HPAI,"domestic, chicken",,1,,,,,,,
208254,National authorities,29.647562,91.073396,Asia,China,Xizang Zizhiqu,Bayi Market,Exact,31/12/2014,02/11/2015,Confirmed,Influenza - Avian,H5N1 HPAI,"domestic, chicken",,1,,,,,,,
208253,National authorities,29.647562,91.073396,Asia,China,Xizang Zizhiqu,Bayi Market,Exact,31/12/2014,02/11/2015,Confirmed,Influenza - Avian,H5N1 HPAI,"domestic, chicken",,1,,,,,,,
208252,National authorities,29.657618,91.135096,Asia,China,Xizang Zizhiqu,Meteorological Bureau Agricultural Products Market,Exact,31/12/2014,02/11/2015,Confirmed,Influenza - Avian,H5N1 HPAI,"domestic, duck",,1,,,,,,,
208251,National authorities,29.647039,91.14479,Asia,China,Xizang Zizhiqu,Hebalin Market,Exact,31/12/2014,02/11/2015,Confirmed,Influenza - Avian,"H5N2 HPAI, H5N1 HPAI","domestic, duck, domestic, chicken",,3,,,,,,,
208172,National authorities,31.37,118.3925,Asia,China,Anhui Sheng,Wuhu,Exact,31/12/2014,02/11/2015,Confirmed,Influenza - Avian,"H5N8 HPAI, H5N1 HPAI, H5N6 HPAI","domestic, duck, domestic, duck, domestic, goose",,2,,,,,,,
208127,National authorities,31.262838,120.621602,Asia,China,Jiangsu Sheng,Xinlong  Market,Exact,31/12/2014,02/11/2015,Confirmed,Influenza - Avian,H5N1 HPAI,"domestic, duck",,1,,,,,,,
208119,National authorities,33.006906,118.493708,Asia,China,Jiangsu Sheng,Moutain city market,Exact,31/12/2014,02/11/2015,Confirmed,Influenza - Avian,H5N1 HPAI,"domestic, duck",,1,,,,,,,
205830,National authorities,37.01,99.43,Asia,China,Qinghai Sheng,"Qinghai county township, Hai Hainan prefecture",Exact,09/07/2015,17/07/2015,Confirmed,Influenza - Avian,H5N1 HPAI,"wild, great black-headed gull",,2361,2361,0,0,,,,
205056,National authorities,31.47,92.05,Asia,China,Xizang Zizhiqu,"Gá lóng cuò bird Island and lake district, Amdo County",Unknown,11/05/2015,29/05/2015,Confirmed,Influenza - Avian,H5N1 HPAI,"wild, bar-headed goose, wild, brown-headed gull, wild, unspecified bird",,415,415,,,,,,
205055,National authorities,43.29,112.52,Asia,China,Nei Mongol Zizhiqu,"Shuangheer wetland, Kezuohouqi",Unknown,11/05/2015,29/05/2015,Confirmed,Influenza - Avian,H5N1 HPAI,"wild, grebe",,,300,0,,,,,
205044,OIE,25.83,107.53,Asia,China,Guizhou Sheng,"Farm, Dushan, Qiannan state",Unknown,09/06/2015,19/06/2015,Confirmed,Influenza - Avian,H5N1 HPAI,"domestic, chicken",12554,4615,3800,8754,,,,,
205043,OIE,31.72,119.93,Asia,China,Jiangsu Sheng,"Wujin, Changzhou",Unknown,07/06/2015,19/06/2015,Confirmed,Influenza - Avian,H5N1 HPAI,"domestic, unspecified bird",2349,2149,1858,491,,,,,
201802,National authorities,25.049525,101.527748,Asia,China,Yunnan Sheng,Chuxiong,Unknown,23/03/2015,03/04/2015,Confirmed,Influenza - Avian,H5N1 HPAI,,,,,,,,,1,
201593,National authorities,24.903876,102.826538,Asia,China,Yunnan Sheng,Kunming,Unknown,13/03/2015,25/03/2015,Confirmed,Influenza - Avian,H5N1 HPAI,,,,,,,,,1,
201558,National authorities,24.903876,102.826538,Asia,China,Yunnan Sheng,Kunming,Unknown,13/03/2015,23/03/2015,Confirmed,Influenza - Avian,H5N1 HPAI,,,,,,,,,1,
201376,National authorities,30.881012,105.393219,Asia,China,Sichuan Sheng,"Shehong County, Suining City",Unknown,01/03/2015,13/03/2015,Confirmed,Influenza - Avian,H5N1 HPAI,,,,,,,,,1,1
200536,National authorities,29.3411819,90.766468,Asia,China,Xizang Zizhiqu,Lhasa City,Centroid Admin2,31/12/2014,26/02/2015,Confirmed,Influenza - Avian,H5N1 HPAI,"domestic, duck, domestic, chicken",,,,,,,,,
200313,National authorities,22.83,108.26,Asia,China,Guangxi Zhuangzu Zizhiqu,Guangxzi Province Nanning City zoo,Unknown,05/02/2015,12/02/2015,Confirmed,Influenza - Avian,H5N1 HPAI,"captive, tiger",8,2,2,,,,,,
199326,National authorities,31.299675,120.585938,Asia,China,Jiangsu Sheng,Suzhou,Unknown,14/01/2015,28/01/2015,Confirmed,Influenza - Avian,H5N1 HPAI,,,,,,,,,1,
198875,OIE,34.46,111.11,Asia,China,Henan Sheng,"Yellow River Wetland, Sanmenxia ",Unknown,14/01/2015,16/01/2015,Confirmed,Influenza - Avian,H5N1 HPAI,"wild, pochard, wild, swan, wild, greater scaup",,93,93,,,,,,
198681,OIE,29.12,115.46,Asia,China,Jiangxi Sheng,"Farm, Jiangyi, Gongqingcheng",Unknown,05/01/2015,09/01/2015,Confirmed,Influenza - Avian,H5N1 HPAI,"domestic, unspecified bird",20483,2371,2371,18112,,,,,
194203,OIE,25.04,102.79,Asia,China,Yunnan Sheng,"Qinglong village live bird market, Kunming",Unknown,12/09/2014,24/10/2014,Confirmed,Influenza - Avian,H5N1 HPAI,"domestic, chicken",,1,0,0,,,,,
194202,OIE,26.25,105.92,Asia,China,Guizhou Sheng,"West Street Market, Anshun",Unknown,12/09/2014,24/10/2014,Confirmed,Influenza - Avian,H5N1 HPAI,"domestic, chicken",,1,0,0,,,,,
194201,OIE,31.72,119.93,Asia,China,Jiangsu Sheng,"Luoyang agriculture trade market, Changzhou",Unknown,12/09/2014,24/10/2014,Confirmed,Influenza - Avian,H5N1 HPAI,"domestic, duck, domestic, unspecified bird",,2,0,0,,,,,
194200,OIE,22.08,106.83,Asia,China,Guangxi Zhuangzu Zizhiqu,"Yinxing agriculture trade market, Chongzuo",Unknown,12/09/2014,24/10/2014,Confirmed,Influenza - Avian,H5N1 HPAI,"domestic, duck",,1,0,0,,,,,
194199,OIE,21.62,108.05,Asia,China,Guangxi Zhuangzu Zizhiqu,"Guomao Market, Fangchenggang",Unknown,12/09/2014,24/10/2014,Confirmed,Influenza - Avian,H5N1 HPAI,"domestic, duck",,1,0,0,,,,,
194198,OIE,29.64,91.07,Asia,China,Xizang Zizhiqu,"Bayi market, Lasa",Unknown,12/09/2014,24/10/2014,Confirmed,Influenza - Avian,H5N1 HPAI,"domestic, chicken",,1,0,0,,,,,
194197,OIE,32.1,118.76,Asia,China,Jiangsu Sheng,"Taixing market, Dali",Unknown,12/09/2014,24/10/2014,Confirmed,Influenza - Avian,H5N1 HPAI,"domestic, duck",,1,0,0,,,,,
194196,OIE,23.36,113.2,Asia,China,Guangdong Sheng,"Jixing live bird market, Huadu District, Guangzhou",Unknown,12/09/2014,24/10/2014,Confirmed,Influenza - Avian,H5N1 HPAI,"domestic, chicken",,1,0,0,,,,,
194195,OIE,36.6,101.77,Asia,China,Qinghai Sheng,"Mojia street agriculture trade market, Xining",Unknown,12/09/2014,24/10/2014,Confirmed,Influenza - Avian,H5N1 HPAI,"domestic, duck",,1,0,0,,,,,
194194,OIE,22.26,113.52,Asia,China,Guangdong Sheng,"Heping sanniao wholesale market, Zhuhai",Unknown,12/09/2014,24/10/2014,Confirmed,Influenza - Avian,H5N1 HPAI,"domestic, goose",,1,0,0,,,,,
194193,OIE,28.85,112.38,Asia,China,Hunan Sheng,"Xiangbei market, Yiyang",Unknown,12/09/2014,24/10/2014,Confirmed,Influenza - Avian,H5N1 HPAI,"domestic, chicken",,1,0,0,,,,,
194192,OIE,23.14,106.31,Asia,China,Guangxi Zhuangzu Zizhiqu,"Agriculture trade market, Jingxi, Baise",Unknown,12/09/2014,24/10/2014,Confirmed,Influenza - Avian,H5N1 HPAI,"domestic, duck",,1,0,0,,,,,
194191,OIE,26.25,105.94,Asia,China,Guizhou Sheng,"Dongfang market, Anshun",Unknown,12/09/2014,24/10/2014,Confirmed,Influenza - Avian,H5N1 HPAI,"domestic, chicken",,1,0,0,,,,,
194190,OIE,24.14,112.94,Asia,China,Guangdong Sheng,"Shima live bird market, changsha",Unknown,12/09/2014,24/10/2014,Confirmed,Influenza - Avian,H5N1 HPAI,"domestic, duck",,1,0,0,,,,,
194189,OIE,28.19,113.01,Asia,China,Hunan Sheng,"Yangjiashan livebird market, Changsha",Unknown,12/09/2014,24/10/2014,Confirmed,Influenza - Avian,H5N1 HPAI,"domestic, duck, domestic, chicken",,2,0,0,,,,,
194188,OIE,21.62,108.06,Asia,China,Guangxi Zhuangzu Zizhiqu,"Zhupai village, Dongxing, Fangchenggang",Unknown,12/09/2014,24/10/2014,Confirmed,Influenza - Avian,H5N1 HPAI,"domestic, duck",,1,0,0,,,,,
183399,National authorities,41.727768,86.174011,Asia,China,Xinjiang Uygur Zizhiqu,Korla,Centroid Admin1,31/12/2013,18/02/2014,Confirmed,Influenza - Avian,H5N1 HPAI,"domestic, duck, domestic, goose",,2,,,,,,,
183398,National authorities,26.646768,106.622658,Asia,China,Guizhou Sheng,Guiyang,Centroid Admin1,31/12/2013,18/02/2014,Confirmed,Influenza - Avian,H5N1 HPAI,"domestic, duck, domestic, chicken",,4,,,,,,,
183397,National authorities,27.726691,106.926498,Asia,China,Guizhou Sheng,Zunyi,Centroid Admin1,31/12/2013,18/02/2014,Confirmed,Influenza - Avian,H5N1 HPAI,"domestic, duck, domestic, pigeon",,2,,,,,,,
183396,National authorities,29.503561,106.512451,Asia,China,Chongqing Shi,Jiulongpo District,Centroid Admin1,31/12/2013,18/02/2014,Confirmed,Influenza - Avian,H5N1 HPAI,"domestic, chicken",,1,,,,,,,
183395,National authorities,22.091366,106.76445,Asia,China,Guangxi Zhuangzu Zizhiqu,Pingxiang,Centroid Admin1,31/12/2013,18/02/2014,Confirmed,Influenza - Avian,H5N1 HPAI,"domestic, duck, domestic, goose",,2,,,,,,,
183394,National authorities,21.686941,108.353262,Asia,China,Guangxi Zhuangzu Zizhiqu,Fangchenggang,Centroid Admin1,31/12/2013,18/02/2014,Confirmed,Influenza - Avian,H5N1 HPAI,"domestic, duck, domestic, chicken",,3,,,,,,,
183393,National authorities,22.543873,114.059801,Asia,China,Guangdong Sheng,Shenzhen,Centroid Admin1,31/12/2013,18/02/2014,Confirmed,Influenza - Avian,H5N1 HPAI,"domestic, duck, domestic, goose",,3,,,,,,,
183392,National authorities,23.12931,113.26458,Asia,China,Guangdong Sheng,Guangzhou,Centroid Admin1,31/12/2013,18/02/2014,Confirmed,Influenza - Avian,H5N1 HPAI,"domestic, duck",,1,,,,,,,
183391,National authorities,24.812291,113.598976,Asia,China,Guangdong Sheng,Shaoguan,Centroid Admin1,31/12/2013,18/02/2014,Confirmed,Influenza - Avian,H5N1 HPAI,"domestic, duck, domestic, goose",,2,,,,,,,
183390,National authorities,28.2306,112.938766,Asia,China,Hunan Sheng,Changsha City,Centroid Admin1,31/12/2013,18/02/2014,Confirmed,Influenza - Avian,H5N1 HPAI,"domestic, duck, domestic, chicken",,3,,,,,,,
183389,National authorities,29.031557,111.699028,Asia,China,Hunan Sheng,Changde City-Hanson County,Centroid Admin1,31/12/2013,18/02/2014,Confirmed,Influenza - Avian,H5N1 HPAI,"domestic, duck",,1,,,,,,,
183388,National authorities,28.673419,112.883148,Asia,China,Hunan Sheng,City-Xiangyin County,Centroid Admin1,31/12/2013,18/02/2014,Confirmed,Influenza - Avian,H5N1 HPAI,"domestic, duck",,1,,,,,,,
183387,National authorities,30.594183,114.299698,Asia,China,Hubei Sheng,Wuhan,Centroid Admin1,31/12/2013,18/02/2014,Confirmed,Influenza - Avian,H5N1 HPAI,"domestic, chicken",,1,,,,,,,
183386,National authorities,28.685769,115.85701,Asia,China,Jiangxi Sheng,Nanchang County,Centroid Admin1,31/12/2013,18/02/2014,Confirmed,Influenza - Avian,H5N1 HPAI,"domestic, duck",,3,,,,,,,
183385,National authorities,25.0,118.090668,Asia,China,Fujian Sheng,Fujian Sheng,Centroid Admin1,31/12/2013,18/02/2014,Confirmed,Influenza - Avian,H5N1 HPAI,"domestic, chicken, domestic, duck",,2,,,,,,,
183384,National authorities,26.078371,119.294357,Asia,China,Fujian Sheng,Fuzhou,Unknown,31/12/2013,18/02/2014,Confirmed,Influenza - Avian,H5N1 HPAI,"domestic, chicken, domestic, duck",,2,,,,,,,
183383,National authorities,31.735175,116.521683,Asia,China,Anhui Sheng,Lu'an City,Unknown,31/12/2013,18/02/2014,Confirmed,Influenza - Avian,H5N1 HPAI,"domestic, chicken",,1,,,,,,,
183382,National authorities,32.274361,119.185181,Asia,China,Jiangsu Sheng,Yizheng,Unknown,31/12/2013,18/02/2014,Confirmed,Influenza - Avian,H5N1 HPAI,"domestic, chicken",,1,,,,,,,
183251,OIE,24.13,102.8,Asia,China,Yunnan Sheng,"Junction of three villages, Tonghai, Yuxi",Unknown,02/03/2014,07/03/2014,Confirmed,Influenza - Avian,H5N1 HPAI,"domestic, unspecified bird",533000,29600,29600,503400,,,,,
183102,National authorities,27.398189,111.349472,Asia,China,Hunan Sheng,Hunan Sheng,Centroid Admin1,,07/03/2014,Confirmed,Influenza - Avian,H5N1 HPAI,,,,,,,,,1,
182925,OIE,26.84,105.83,Asia,China,Guizhou Sheng,"Zhailong village, Anshun",Unknown,13/02/2014,18/02/2014,Confirmed,Influenza - Avian,H5N1 HPAI,"domestic, unspecified bird",324268,3629,976,323292,,,,,
182793,National authorities,24.318942,109.451981,Asia,China,Guangxi Zhuangzu Zizhiqu,"Yufeng District, Liuzhou City",Unknown,27/01/2014,01/02/2014,Confirmed,Influenza - Avian,H5N1 HPAI,,,,,,,,,1,
182211,OIE,29.72,115.03,Asia,China,Hubei Sheng,"Wanjia Village, Paishi, Huangshi,",Unknown,07/01/2014,13/01/2014,Confirmed,Influenza - Avian,H5N1 HPAI,"domestic, unspecified bird",50000,6700,3200,46800,,,,,
182127,OIE,25.57,107.73,Asia,China,Guizhou Sheng,"Yijue Village, Libo, Qiannan",Unknown,27/12/2013,02/01/2014,Confirmed,Influenza - Avian,H5N1 HPAI,"domestic, chicken",31567,9300,8500,23067,,,,,
181802,National authorities,25.284438,110.291061,Asia,China,Guangxi Zhuangzu Zizhiqu,"Wenbo poultry market, Guilin City",Unknown,,25/11/2013,Confirmed,Influenza - Avian,H5N1 HPAI,"domestic, duck",,1,,,,,,,
181801,National authorities,28.23302,112.9422,Asia,China,Hunan Sheng,"Yáng jiā Shān jiā Poultry Wholesale Market, Changsha City",Unknown,,25/11/2013,Confirmed,Influenza - Avian,H5N1 HPAI,"domestic, duck",,4,,,,,,,
181800,National authorities,28.23302,112.9422,Asia,China,Hunan Sheng,"Shima poultry wholesale market, Yuhua District, Changsha City",Unknown,,25/11/2013,Confirmed,Influenza - Avian,H5N1 HPAI,"domestic, duck",,1,,,,,,,
181799,National authorities,29.720259,106.630554,Asia,China,Chongqing Shi,"Sanya Bay Fish Market, Yubei District,",Unknown,,25/11/2013,Confirmed,Influenza - Avian,H5N1 HPAI,"domestic, chicken, domestic, duck",,4,,,,,,,
181798,National authorities,29.502964,106.510735,Asia,China,Chongqing Shi,"Yángjiāpíng farmers’ market, Jiulongpo District",Unknown,,25/11/2013,Confirmed,Influenza - Avian,H5N1 HPAI,"domestic, chicken, domestic, duck",,11,,,,,,,
181797,National authorities,30.195244,107.864762,Asia,China,Chongqing Shi,"Bishan County, Xiàngyáng farmers’ market",Centroid Admin1,,25/11/2013,Confirmed,Influenza - Avian,H5N1 HPAI,"domestic, chicken, domestic, duck",,6,,,,,,,
175967,WHO,40.266901,116.593838,Asia,China,Beijing Shi,Beijing Shi,Centroid Admin1,25/11/2003,08/08/2006,Confirmed,Influenza - Avian,H5N1 HPAI,,,,,,,,,1,1
175965,WHO,25.920724,117.920212,Asia,China,Fujian Sheng,Fujian Sheng,Centroid Admin1,10/01/2006,09/02/2006,Confirmed,Influenza - Avian,H5N1 HPAI,,,,,,,,,1,
175963,WHO,27.398189,111.349472,Asia,China,Hunan Sheng,Hunan Sheng,Centroid Admin1,24/12/2005,10/01/2006,Confirmed,Influenza - Avian,H5N1 HPAI,,,,,,,,,1,
175962,WHO,41.095066,122.38624,Asia,China,Liaoning Sheng,Liaoning Sheng,Centroid Admin1,30/10/2005,09/12/2005,Confirmed,Influenza - Avian,H5N1 HPAI,,,,,,,,,1,
175792,OIE,29.12,94.22,Asia,China,Xizang Zizhiqu,Qionglin village,Unknown,13/05/2013,13/05/2013,Confirmed,Influenza - Avian,H5N1 HPAI,"domestic, unspecified bird",407,35,35,372,0,,,,
174702,National authorities,26.937353,106.635116,Asia,China,Guizhou Sheng,South western city of Guiyang,Centroid Admin1,03/02/2013,10/02/2013,Confirmed,Influenza - Avian,H5N1 HPAI,,,,,,,,,1,1
174616,National authorities,26.937353,106.635116,Asia,China,Guizhou Sheng,South western city of Guiyang,Centroid Admin1,02/02/2013,10/02/2013,Confirmed,Influenza - Avian,H5N1 HPAI,,,,,,,,,1,1
173026,WHO,22.8333,108.233,Asia,China,Guangxi Zhuangzu Zizhiqu,"Xixiangtang District, Nanning city",Exact,12/02/2008,12/02/2008,Confirmed,Influenza - Avian,H5N1 HPAI,,,,,,,,,1,1
173025,WHO,41.19944,85.30199,Asia,China,Xinjiang Uygur Zizhiqu,Xinjiang Uygur Zizhiqu,Centroid Admin1,19/06/2006,19/06/2006,Confirmed,Influenza - Avian,H5N1 HPAI,,,,,,,,,1,1
173024,WHO,22.55653,113.9859,Asia,China,Guangdong Sheng,Shenzhen City,Centroid Locality,03/06/2006,09/06/2006,Confirmed,Influenza - Avian,H5N1 HPAI,,,,,,,,,1,
173023,WHO,30.61258,102.7238,Asia,China,Sichuan Sheng,Sichuan,Centroid Admin1,16/04/2006,16/04/2006,Confirmed,Influenza - Avian,H5N1 HPAI,,,,,,,,,1,
173022,WHO,30.72619,114.38946,Asia,China,Hubei Sheng,Wuhan city,Centroid Locality,01/04/2006,01/04/2006,Confirmed,Influenza - Avian,H5N1 HPAI,,,,,,,,,1,1
173021,WHO,31.19047,121.41822,Asia,China,Shanghai Shi,Shanghai ,Centroid Admin1,15/03/2006,15/03/2006,Confirmed,Influenza - Avian,H5N1 HPAI,,,,,,,,,1,1
173020,WHO,23.34962,113.40937,Asia,China,Guangdong Sheng,Guangdong,Centroid Admin1,22/02/2006,22/02/2006,Confirmed,Influenza - Avian,H5N1 HPAI,,,,,,,,,1,1
173019,WHO,32.041826,117.169105,Asia,China,Anhui Sheng,Anhui,Centroid Admin1,11/02/2006,11/02/2006,Confirmed,Influenza - Avian,H5N1 HPAI,,,,,,,,,1,
173018,WHO,29.19315,120.0694,Asia,China,Zhejiang Sheng,Zhejiang,Centroid Admin1,10/02/2006,10/02/2006,Confirmed,Influenza - Avian,H5N1 HPAI,,,,,,,,,1,1
173017,WHO,27.398189,111.349472,Asia,China,Hunan Sheng,Hunan,Centroid Admin1,27/01/2006,27/01/2006,Confirmed,Influenza - Avian,H5N1 HPAI,,,,,,,,,1,1
173016,WHO,30.6597,104.0633,Asia,China,Sichuan Sheng,Chengdu city,Centroid Locality,12/01/2006,12/01/2006,Confirmed,Influenza - Avian,H5N1 HPAI,,,,,,,,,1,1
173015,WHO,30.61258,102.7238,Asia,China,Sichuan Sheng,Sichuan,Centroid Admin1,03/01/2006,10/01/2006,Confirmed,Influenza - Avian,H5N1 HPAI,,,,,,,,,1,1
173014,National authorities,31.195476,121.358757,Asia,China,Shanghai Shi,Shanghai's zoo,Exact,15/07/2005,15/07/2005,Confirmed,Influenza - Avian,H5N1 HPAI,"captive, tiger",,1,1,,,,,,
173013,WHO,26.08049,117.98191,Asia,China,Fujian Sheng,Fujian,Centroid Admin1,06/12/2005,08/12/2005,Confirmed,Influenza - Avian,H5N1 HPAI,,,,,,,,,1,1
173012,WHO,27.303952,115.482428,Asia,China,Jiangxi Sheng,Jiangxi,Centroid Admin1,04/12/2005,16/12/2005,Confirmed,Influenza - Avian,H5N1 HPAI,,,,,,,,,1,1
173011,WHO,23.84178,108.78607,Asia,China,Guangxi Zhuangzu Zizhiqu,Guangxi,Centroid Admin1,23/11/2005,07/12/2005,Confirmed,Influenza - Avian,H5N1 HPAI,,,,,,,,,1,1
172773,OIE,21.04,110.49,Asia,China,Guangdong Sheng,Dongjian,Unknown,11/09/2012,18/09/2012,Confirmed,Influenza - Avian,H5N1 HPAI,"domestic, unspecified bird",73800,14050,6300,67500,0,,,,
172125,OIE,25.0435,121.1326,Asia,Taiwan (Province of China),Taiwan Sheng,Luchu Township,Unknown,07/07/2012,17/07/2012,Confirmed,Influenza - Avian,H5N1 HPAI,"domestic, unspecified bird",38,37,0,38,0,,,,
172060,OIE,43.79,87.62,Asia,China,Xinjiang Uygur Zizhiqu,Xinjiang Production and Construction Corps,Unknown,02/07/2012,02/07/2012,Confirmed,Influenza - Avian,H5N1 HPAI,"domestic, unspecified bird",156439,5500,1600,154839,0,,,,
171396,OIE,37.04,104.16,Asia,China,Gansu Sheng,Dongguan village,Unknown,01/06/2012,06/06/2012,Confirmed,Influenza - Avian,H5N1 HPAI,"domestic, unspecified bird",18460,6200,260,18200,0,,,,
171392,FAO Field Officer,23.133334,113.266667,Asia,China,Guangdong Sheng,Guangzhou,Centroid Locality,23/05/2012,04/06/2012,Confirmed,Influenza - Avian,H5N1 HPAI,,,,,,,,,1,
170588,OIE,38.92,121.64,Asia,China,Liaoning Sheng,Zhongshan District,Unknown,18/04/2012,24/04/2012,Confirmed,Influenza - Avian,H5N1 HPAI,"domestic, unspecified bird",282,5,5,277,0,,,,
170418,OIE,36.23,106.18,Asia,China,Ningxia Huizu Zizhiqu,Yanglang village,Unknown,13/04/2012,18/04/2012,Confirmed,Influenza - Avian,H5N1 HPAI,"domestic, unspecified bird",95000,23880,10468,84532,0,,,,
169914,OIE,24.35,102.54,Asia,China,Yunnan Sheng,HongTa District,Unknown,27/03/2012,31/03/2012,Confirmed,Influenza - Avian,H5N1 HPAI,"domestic, unspecified bird",35018,2,0,35018,0,,,,
166845,National authorities,26.937353,106.635116,Asia,China,Guizhou Sheng,Guiyan City,Centroid Admin1,06/01/2012,22/01/2012,Confirmed,Influenza - Avian,H5N1 HPAI,,,,,,,,,1,1
166452,National authorities,22.543092,114.05785,Asia,China,Guangdong Sheng,Shenzhen,Centroid Locality,21/12/2011,05/01/2012,Confirmed,Influenza - Avian,H5N1 HPAI,,,,,,,,,1,1
166194,OIE,29.57,91.03,Asia,China,Xizang Zizhiqu,Sangda,Unknown,02/12/2011,12/12/2011,Confirmed,Influenza - Avian,H5N1 HPAI,"domestic, unspecified bird",1865,290,290,1575,0,,,,
159081,National authorities,32.041826,117.169105,Asia,China,Anhui Sheng,Anhui Sheng,Centroid Admin1,10/12/2006,10/01/2007,Confirmed,Influenza - Avian,H5N1 HPAI,,,,,,,,,1,0
159074,National authorities,25.920724,117.920212,Asia,China,Fujian Sheng,Fujian Sheng,Centroid Admin1,18/02/2007,01/03/2007,Confirmed,Influenza - Avian,H5N1 HPAI,,,,,,,,,1,0
159008,National authorities,27.398189,111.349472,Asia,China,Hunan Sheng,Hunan Sheng,Centroid Admin1,23/01/2008,20/02/2008,Confirmed,Influenza - Avian,H5N1 HPAI,,,,,,,,,1,1
155079,National authorities,33.188515,88.8832642,Asia,China,Xizang Zizhiqu,Shuanghu,Centroid Locality,15/05/2010,09/06/2010,Confirmed,Influenza - Avian,H5N1 HPAI,"wild, chough, wild, goose, wild, gull, wild, wigeon",,170,170,,,,,,
155076,WHO,30.4,114.8333333,Asia,China,Hubei Sheng,Ezhou City,Centroid Locality,23/05/2010,08/06/2010,Confirmed,Influenza - Avian,H5N1 HPAI,,,,,,,,,1,1
154340,National authorities,37.330017,100.131908,Asia,China,Qinghai Sheng,Gangcha Xian,Exact,23/04/2006,30/04/2006,Confirmed,Influenza - Avian,H5N1 HPAI,"wild, bar-headed goose",,1,1,,,,,,
149337,National authorities,22.696213,104.388926,Asia,China,Yunnan Sheng,Pa Vay Su,Centroid Admin3,02/02/2005,02/02/2005,Confirmed,Influenza - Avian,H5N1 HPAI,"domestic, unspecified bird",,,27,27,,,,,
132590,OIE,36.6,99.16,Asia,China,Qinghai Sheng,Gengahai Lake,Unknown,27/05/2009,04/06/2009,Confirmed,Influenza - Avian,H5N1 HPAI,"wild, unspecified bird, wild, bar-headed goose, wild, great crested grebe, wild, brown-headed gull",,162,162,,,,,,
132543,Other,36.2810308,100.6135479,Asia,China,Qinghai Sheng,Genggahu Lake,Exact,08/05/2009,17/05/2009,Confirmed,Influenza - Avian,H5N1 HPAI,"wild, bar-headed goose, wild, great crested grebe, wild, brown-headed gull",,121,121,,,,,,
132149,National authorities,37.11,79.36,Asia,China,Xinjiang Uygur Zizhiqu,Cheng'guan (Tibet),Unknown,12/04/2009,19/04/2009,Confirmed,Influenza - Avian,H5N1 HPAI,"domestic, chicken",3179,1500,1500,1679,,,,,
130383,OIE,37.11,79.36,Asia,China,Xinjiang Uygur Zizhiqu,Zhawa,Unknown,01/02/2009,10/02/2009,Confirmed,Influenza - Avian,H5N1 HPAI,"domestic, unspecified bird",13737,1330,519,13218,,,,,
130351,WHO,27.7905157,110.6322126,Asia,China,Hunan Sheng,Xupu Xian,Unknown,23/01/2009,02/02/2009,Confirmed,Influenza - Avian,H5N1 HPAI,,,,,,,,,1,
130301,National authorities,22.71032,110.35217,Asia,China,Guangxi Zhuangzu Zizhiqu,Beiliu City,Unknown,19/01/2009,27/01/2009,Confirmed,Influenza - Avian,H5N1 HPAI,,,,,,,,,1,1
130300,National authorities,26.54349,106.7611,Asia,China,Guizhou Sheng,Guiyang city,Unknown,15/01/2009,27/01/2009,Confirmed,Influenza - Avian,H5N1 HPAI,,,,,,,,,1,
130299,National authorities,43.78266,87.58651,Asia,China,Xinjiang Uygur Zizhiqu,Urumqi,Unknown,10/01/2009,27/01/2009,Confirmed,Influenza - Avian,H5N1 HPAI,,,,,,,,,1,1
130267,WHO,27.55583,109.99763,Asia,China,Hunan Sheng,Huaihua city,Unknown,08/01/2009,24/01/2009,Confirmed,Influenza - Avian,H5N1 HPAI,,,,,,,,,1,1
130266,WHO,37.75,111.4166667,Asia,China,Shanxi Sheng,Luliang Shan,Unknown,07/01/2009,19/01/2009,Confirmed,Influenza - Avian,H5N1 HPAI,,,,,,,,,1,
130265,WHO,36.6833333,116.9833333,Asia,China,Shandong Sheng,Jinan,Unknown,05/01/2009,19/01/2009,Confirmed,Influenza - Avian,H5N1 HPAI,,,,,,,,,1,1
129884,National authorities,40.2225304,116.4210815,Asia,China,Beijing Shi,Beijing Shi,Unknown,24/12/2008,07/01/2009,Confirmed,Influenza - Avian,H5N1 HPAI,,,,,,,,,1,1
129841,National authorities,32.84,120.31,Asia,China,Jiangsu Sheng,"Xubei, Xunan",Unknown,09/12/2008,16/12/2008,Confirmed,Influenza - Avian,H5N1 HPAI,"domestic, chicken",160800,,,160800,,,,,
129840,National authorities,32.57,120.45,Asia,China,Jiangsu Sheng,"Lingdong, Xinghe, Xihu",Unknown,09/12/2008,16/12/2008,Confirmed,Influenza - Avian,H5N1 HPAI,"domestic, chicken",216198,,,216198,,,,,
128117,National authorities,22.491,112.858,Asia,China,Guangdong Sheng,Xinhui,Exact,13/06/2008,17/06/2008,Confirmed,Influenza - Avian,H5N1 HPAI,"domestic, duck",,,3873,,17127,,,,
127975,WHO,22.783,115.35,Asia,China,Guangdong Sheng,Shanwei,Unknown,16/02/2008,26/02/2008,Confirmed,Influenza - Avian,H5N1 HPAI,,,,,,,,,1,1
127643,OIE,30.3,96.51,Asia,China,Xizang Zizhiqu,Zhuba,Unknown,28/03/2008,07/04/2008,Confirmed,Influenza - Avian,H5N1 HPAI,"domestic, chicken",2318,268,268,2050,,,,,
127517,National authorities,23.1155556,113.2383333,Asia,China,Guangdong Sheng,Liwan Qu,Unknown,13/03/2008,14/03/2008,Confirmed,Influenza - Avian,H5N1 HPAI,"domestic, chicken",662,144,144,518,,,,,
127308,National authorities,28.5591667,107.4408333,Asia,China,Guizhou Sheng,Fengyi,Unknown,17/02/2008,25/02/2008,Confirmed,Influenza - Avian,H5N1 HPAI,"domestic, chicken",,3993,3993,,,,,,
127224,National authorities,29.638,90.956,Asia,China,Xizang Zizhiqu,Se Ma,Exact,06/02/2008,17/02/2008,Confirmed,Influenza - Avian,H5N1 HPAI,"domestic, chicken",7698,180,132,7566,,,,,
126962,OIE,29.276,91.089,Asia,China,Xizang Zizhiqu,Jiedexu,Exact,21/01/2008,21/01/2008,Confirmed,Influenza - Avian,H5N1 HPAI,"domestic, unspecified bird",14080,1000,1000,13080,,,,,
126036,National authorities,42.933,89.1666,Asia,China,Xinjiang Uygur Zizhiqu,Putao,Unknown,29/12/2007,29/12/2007,Confirmed,Influenza - Avian,H5N1 HPAI,"domestic, chicken",,4850,4850,29383,0,,,,
125525,National authorities,33.0,120.0,Asia,China,Jiangsu Sheng,Kiangsu,Unknown,03/12/2007,03/12/2007,Confirmed,Influenza - Avian,H5N1 HPAI,,,,,,,,,1,1
125436,National authorities,33.0,120.0,Asia,China,Jiangsu Sheng,Kiangsu,Unknown,24/11/2007,24/11/2007,Confirmed,Influenza - Avian,H5N1 HPAI,,,,,,,,,1,1
124658,National authorities,22.933,113.3497,Asia,China,Guangdong Sheng,Sixian,Unknown,05/09/2007,05/09/2007,Confirmed,Influenza - Avian,H5N1 HPAI,"domestic, duck",,9830,9830,,,,,,
122504,National authorities,26.0,118.0,Asia,China,Fujian Sheng,Fu-chien,Unknown,23/05/2007,23/05/2007,Confirmed,Influenza - Avian,H5N1 HPAI,,,,,,,,,1,
122208,National authorities,28.518,112.144,Asia,China,Hunan Sheng,Shipijing,Exact,12/05/2007,21/05/2007,Confirmed,Influenza - Avian,H5N1 HPAI,"domestic, chicken",20800,12480,11172,,,,,,
120992,National authorities,32.94083,117.36083,Asia,China,Anhui Sheng,Bengbu (Anhui),Unknown,29/03/2007,29/03/2007,Confirmed,Influenza - Avian,H5N1 HPAI,,,,,,,,,1,1
117134,National authorities,27.0469,118.3252,Asia,China,Fujian Sheng,Jian Ou,Unknown,14/03/2007,14/03/2007,Confirmed,Influenza - Avian,H5N1 HPAI,"wild, magpie, wild, corn crake, wild, hawk",,3,3,,,,,,
117128,National authorities,27.04694,118.32528,Asia,China,Fujian Sheng,Jian Ou (China),Unknown,14/03/2007,14/03/2007,Confirmed,Influenza - Avian,H5N1 HPAI,"domestic, duck, domestic, chicken",,2,,,,,,,
116996,OIE,29.6499,91.0999,Asia,China,Xizang Zizhiqu,Changguan,Unknown,06/03/2007,06/03/2007,Confirmed,Influenza - Avian,H5N1 HPAI,"domestic, chicken",7670,680,680,6990,,,,,
113663,OIE,38.46667,106.31667,Asia,China,Ningxia Huizu Zizhiqu,Yinchuan,Unknown,20/09/2006,06/10/2006,Confirmed,Influenza - Avian,H5N1 HPAI,"domestic, chicken",72930,1000,1000,72930,,,,,
113489,OIE,40.64972,109.82,Asia,China,Nei Mongol Zizhiqu,Baotou city ,Unknown,27/09/2006,30/09/2006,Confirmed,Influenza - Avian,H5N1 HPAI,"domestic, duck, domestic, chicken",,985,985,,,,,,
112454,National authorities,28.256,112.986,Asia,China,Hunan Sheng,Kaifu,Exact,14/08/2006,17/08/2006,Confirmed,Influenza - Avian,H5N1 HPAI,"domestic, duck",217000,1805,1805,217000,,,,,
111716,National authorities,41.14972,80.25,Asia,China,Xinjiang Uygur Zizhiqu,Aksu,Unknown,19/07/2006,20/07/2006,Confirmed,Influenza - Avian,H5N1 HPAI,"domestic, chicken",356976,345,,356976,,,,,
111312,OIE,41.819828,121.993265,Asia,China,Liaoning Sheng,badaohao,Unknown,03/11/2005,04/11/2005,Confirmed,Influenza - Avian,H5N1 HPAI,"wild, unspecified bird, wild, magpie",,20,20,,,,,,
111290,National authorities,37.5,105.15,Asia,China,Ningxia Huizu Zizhiqu,Zhongwei,Unknown,26/06/2006,29/06/2006,Confirmed,Influenza - Avian,H5N1 HPAI,"domestic, chicken",581000,50300,6743,581000,,,,,
111260,OIE,30.473025,91.100999,Asia,China,Xizang Zizhiqu,Xizang Zizhiqu,Centroid Admin1,26/05/2006,26/06/2006,Confirmed,Influenza - Avian,H5N1 HPAI,"wild, unspecified bird",,57,57,,,,,,
111214,National authorities,36.117,112.879,Asia,China,Shanxi Sheng,Houjiazhuang,Exact,20/06/2006,20/06/2006,Confirmed,Influenza - Avian,H5N1 HPAI,"domestic, chicken",,,,,,,,,
111210,National authorities,36.16667,111.28306,Asia,China,Shanxi Sheng,Qianyishang,Unknown,20/06/2006,20/06/2006,Confirmed,Influenza - Avian,H5N1 HPAI,"domestic, chicken",,,,,,,,,
111206,National authorities,37.84472,112.78917,Asia,China,Shanxi Sheng,Dongchuang,Unknown,20/06/2006,20/06/2006,Confirmed,Influenza - Avian,H5N1 HPAI,"domestic, chicken",,,,,,,,,
111202,National authorities,36.414,113.392,Asia,China,Shanxi Sheng,Pei-liu,Exact,20/06/2006,20/06/2006,Confirmed,Influenza - Avian,H5N1 HPAI,"domestic, chicken",,,,,,,,,
111145,National authorities,37.0,112.0,Asia,China,Shanxi Sheng,Shansi,Unknown,17/06/2006,19/06/2006,Confirmed,Influenza - Avian,H5N1 HPAI,"domestic, chicken",,,,,,,,,
111141,National authorities,36.076,112.828,Asia,China,Shanxi Sheng,Shih-chia-chuang,Exact,17/06/2006,19/06/2006,Confirmed,Influenza - Avian,H5N1 HPAI,"domestic, chicken",,2600,2400,,,,,,
111110,OIE,29.645554,91.140856,Asia,China,Xizang Zizhiqu,Lhassa,Unknown,26/05/2006,09/06/2006,Confirmed,Influenza - Avian,H5N1 HPAI,"wild, unspecified bird",,28,28,,,,,,
110833,National authorities,37.09972,79.92694,Asia,China,Xinjiang Uygur Zizhiqu,Hotien,Unknown,04/06/2006,07/06/2006,Confirmed,Influenza - Avian,H5N1 HPAI,"domestic, chicken",437,,200,,,,,,
110235,National authorities,31.482312,92.056796,Asia,China,Xizang Zizhiqu,Nagqu,Unknown,21/05/2006,24/05/2006,Confirmed,Influenza - Avian,H5N1 HPAI,"wild, bar-headed goose, wild, duck, wild, crow, wild, hawk, wild, crane, wild, unspecified bird",,460,460,,,,,,
110231,National authorities,34.4774096,100.2420896,Asia,China,Qinghai Sheng,Ngolog Tibetan Autonomous District,Unknown,21/05/2006,24/05/2006,Confirmed,Influenza - Avian,H5N1 HPAI,"wild, bar-headed goose, wild, gull, wild, ruddy shelduck, wild, grebe, wild, owl, wild, crane, wild, cormorant, wild, vulture, wild, condur",,285,285,,,,,,
109479,National authorities,33.01667,96.73306,Asia,China,Qinghai Sheng,Yu-shu Hsien,Unknown,23/04/2006,01/05/2006,Confirmed,Influenza - Avian,H5N1 HPAI,"wild, bar-headed goose, wild, gull, wild, ruddy shelduck, wild, tern, wild, grebe, wild, egret, wild, goosander, wild, casmerodiu",,423,423,,,,,,
109027,OIE,41.119998,122.070715,Asia,China,Liaoning Sheng,Panjin Shi,Unknown,13/04/2006,20/04/2006,Confirmed,Influenza - Avian,H5N1 HPAI,"wild, magpie",,1,1,,,,,,
109023,OIE,41.095123,121.12701,Asia,China,Liaoning Sheng,Jinzhou,Unknown,13/04/2006,20/04/2006,Confirmed,Influenza - Avian,H5N1 HPAI,"wild, magpie",,1,1,,,,,,
105561,National authorities,32.629,116.265,Asia,China,Anhui Sheng,Jitai,Exact,22/02/2006,25/02/2006,Confirmed,Influenza - Avian,H5N1 HPAI,"domestic, chicken",,13,13,200,,,,,
105196,National authorities,32.63306,116.25,Asia,China,Anhui Sheng,Ying-shang Hsien,Unknown,25/02/2006,25/02/2006,Confirmed,Influenza - Avian,H5N1 HPAI,"domestic, chicken",,,13,,,,,,
104347,National authorities,37.85833,113.57667,Asia,China,Shanxi Sheng,Yangquan,Unknown,07/02/2006,07/02/2006,Confirmed,Influenza - Avian,H5N1 HPAI,"domestic, chicken",,15000,15000,187745,,,,,
103745,National authorities,26.63306,106.79972,Asia,China,Guizhou Sheng,Wudang,Unknown,03/01/2006,10/01/2006,Confirmed,Influenza - Avian,H5N1 HPAI,"domestic, chicken",42000,16000,16000,42000,,,,,
103524,OIE,29.56667,106.58306,Asia,China,Chongqing Shi,Chongqing,Unknown,22/12/2005,05/01/2006,Confirmed,Influenza - Avian,H5N1 HPAI,"domestic, chicken",,1800,1800,12900,,,,,
103065,OIE,26.91667,115.75,Asia,China,Jiangxi Sheng,Shangxi,Unknown,15/12/2005,15/12/2005,Confirmed,Influenza - Avian,H5N1 HPAI,"domestic, duck",,3100,1640,150065,,,,,
102396,National authorities,32.04,117.24,Asia,China,Anhui Sheng,Zongyang,Unknown,16/11/2005,16/11/2005,Confirmed,Influenza - Avian,H5N1 HPAI,,,,,,,,,1,1
102392,National authorities,27.39,111.53,Asia,China,Hunan Sheng,Xiangtan,Unknown,16/11/2005,16/11/2005,Confirmed,Influenza - Avian,H5N1 HPAI,,,,,,,,,1,
102386,National authorities,32.04,117.24,Asia,China,Anhui Sheng,Xiuning,Unknown,11/11/2005,11/11/2005,Confirmed,Influenza - Avian,H5N1 HPAI,,,,,,,,,1,1
102374,OIE,43.39972,83.29972,Asia,China,Xinjiang Uygur Zizhiqu,Xinyuan,Unknown,24/11/2005,24/11/2005,Confirmed,Influenza - Avian,H5N1 HPAI,"domestic, chicken",680,596,300,380,,,,,
102260,OIE,26.461,111.592,Asia,China,Hunan Sheng,Lengshuitan,Exact,25/11/2005,28/11/2005,Confirmed,Influenza - Avian,H5N1 HPAI,"domestic, duck, domestic, chicken, domestic, unspecified bird",6010,456,804,13481,,,,,
102254,OIE,42.86667,90.16667,Asia,China,Xinjiang Uygur Zizhiqu,Shanshan,Unknown,22/11/2005,28/11/2005,Confirmed,Influenza - Avian,H5N1 HPAI,"domestic, chicken",800,288,288,52162,,,,,
102248,OIE,43.79972,87.58306,Asia,China,Xinjiang Uygur Zizhiqu,urumchi,Unknown,12/11/2005,25/11/2005,Confirmed,Influenza - Avian,H5N1 HPAI,"domestic, chicken",48,8,8,48,,,,,
102237,National authorities,48.0,122.71667,Asia,China,Nei Mongol Zizhiqu,Zalantun,Unknown,20/11/2005,25/11/2005,Confirmed,Influenza - Avian,H5N1 HPAI,"domestic, chicken",3626,246,246,3380,,,,,
102191,National authorities,42.93306,89.16667,Asia,China,Xinjiang Uygur Zizhiqu,turpan,Unknown,17/11/2005,24/11/2005,Confirmed,Influenza - Avian,H5N1 HPAI,"domestic, chicken",,,11,5180,,,,,
102161,OIE,43.96667,87.7,Asia,China,Xinjiang Uygur Zizhiqu,Mi Quan,Unknown,23/11/2005,23/11/2005,Confirmed,Influenza - Avian,H5N1 HPAI,"domestic, chicken",6120,,2064,84067,,,,,
102143,OIE,25.03639,101.54556,Asia,China,Yunnan Sheng,Chu Xiong,Unknown,17/11/2005,17/11/2005,Confirmed,Influenza - Avian,H5N1 HPAI,"domestic, chicken",11000,2500,2500,99400,,,,,
102138,OIE,38.46667,106.31667,Asia,China,Ningxia Huizu Zizhiqu,Yinchuan City,Unknown,17/11/2005,17/11/2005,Confirmed,Influenza - Avian,H5N1 HPAI,"domestic, chicken",1130,294,230,66800,,,,,
102130,OIE,43.8,87.58333,Asia,China,Xinjiang Uygur Zizhiqu,Urumqi,Unknown,16/11/2005,16/11/2005,Confirmed,Influenza - Avian,H5N1 HPAI,"domestic, chicken",125,38,38,8388,,,,,
102095,OIE,29.71667,112.4,Asia,China,Hubei Sheng,Shishou,Unknown,20/11/2005,20/11/2005,Confirmed,Influenza - Avian,H5N1 HPAI,"domestic, goose",,,3500,,,,,,
102083,OIE,48.48306,124.48306,Asia,China,Nei Mongol Zizhiqu,Morin Dawa,Unknown,15/11/2005,21/11/2005,Confirmed,Influenza - Avian,H5N1 HPAI,"domestic, chicken",,,176,,,,,,
102033,OIE,37.146,111.779,Asia,China,Shanxi Sheng,Xiaoyi,Exact,10/11/2005,18/11/2005,Confirmed,Influenza - Avian,H5N1 HPAI,"domestic, chicken",,,8103,,,,,,
102000,Other,37.09972,79.92694,Asia,China,Xinjiang Uygur Zizhiqu,hotan,Unknown,14/11/2005,17/11/2005,Confirmed,Influenza - Avian,H5N1 HPAI,"domestic, chicken",,,,,,,,,
101996,Other,30.91667,113.9,Asia,China,Hubei Sheng,Xiaogan,Unknown,05/11/2005,17/11/2005,Confirmed,Influenza - Avian,H5N1 HPAI,"domestic, chicken",,,662,,,,,,
101990,Other,38.19556,77.27222,Asia,China,Xinjiang Uygur Zizhiqu,Zepu,Unknown,15/11/2005,15/11/2005,Confirmed,Influenza - Avian,H5N1 HPAI,"domestic, chicken",,,,,,,,,
101894,Other,43.79972,87.58306,Asia,China,Xinjiang Uygur Zizhiqu,urumchi,Unknown,11/11/2005,15/11/2005,Confirmed,Influenza - Avian,H5N1 HPAI,"domestic, chicken",,,1400,,,,,,
101842,Other,41.89194,121.86472,Asia,China,Liaoning Sheng,daling,Unknown,06/11/2005,06/11/2005,Confirmed,Influenza - Avian,H5N1 HPAI,"domestic, chicken",11590,2150,1100,10490,,,,,
101832,Other,41.59556,121.79278,Asia,China,Liaoning Sheng,beining,Unknown,06/11/2005,06/11/2005,Confirmed,Influenza - Avian,H5N1 HPAI,"domestic, chicken",5800,860,300,5500,,,,,
101818,Other,32.62639,116.99694,Asia,China,Anhui Sheng,Huai Nan City,Unknown,14/11/2005,14/11/2005,Confirmed,Influenza - Avian,H5N1 HPAI,"domestic, duck",1800,,800,,,,,,
101775,Other,42.06667,121.73306,Asia,China,Liaoning Sheng,fuxin,Unknown,06/11/2005,10/11/2005,Confirmed,Influenza - Avian,H5N1 HPAI,"domestic, chicken",,,,,,,,,
101678,Other,41.83306,121.98306,Asia,China,Liaoning Sheng,badaohao,Unknown,03/11/2005,04/11/2005,Confirmed,Influenza - Avian,H5N1 HPAI,"domestic, chicken",,82000,8940,369900,,,,,
101491,Other,27.618,112.779,Asia,China,Hunan Sheng,Wantang,Exact,26/10/2005,26/10/2005,Confirmed,Influenza - Avian,H5N1 HPAI,"domestic, duck, domestic, chicken, domestic, unspecified bird",687,545,545,142,,,,,
101436,Other,32.69139,118.99889,Asia,China,Anhui Sheng,TianChang,Unknown,20/10/2005,20/10/2005,Confirmed,Influenza - Avian,H5N1 HPAI,"domestic, goose, domestic, chicken, domestic, chicken",,2100,550,45000,,,,,
101357,Other,24.0,121.0,Asia,Taiwan (Province of China),Taiwan Sheng,taiwan,Unknown,14/10/2005,20/10/2005,Confirmed,Influenza - Avian,H5N1 HPAI,"wild, unspecified bird",,1037,1037,,,,,,
101291,Other,40.81056,111.65222,Asia,China,Nei Mongol Zizhiqu,Hohhot,Unknown,14/10/2005,19/10/2005,Confirmed,Influenza - Avian,H5N1 HPAI,"domestic, chicken",6000,2600,2600,,,,,,
100507,Other,44.01667,87.31667,Asia,China,Xinjiang Uygur Zizhiqu,Changji,Unknown,21/06/2005,21/06/2005,Confirmed,Influenza - Avian,H5N1 HPAI,"domestic, goose, domestic, duck, domestic, chicken",1490,128,63,1490,,,,,
100481,Other,46.75,82.95,Asia,China,Xinjiang Uygur Zizhiqu,Tarbagatai,Unknown,07/06/2005,08/06/2005,Confirmed,Influenza - Avian,H5N1 HPAI,"domestic, goose",2177,1042,460,,,,,,
100399,Other,37.26667,100.26667,Asia,China,Qinghai Sheng,Gangca Xian,Unknown,04/05/2005,09/05/2005,Confirmed,Influenza - Avian,H5N1 HPAI,"wild, bar-headed goose, wild, gull, wild, gull, wild, cormorant, wild, ruddy shelduck, wild, duck",,6000,6000,,,,,,
4978,Other,31.599,117.862,Asia,China,Anhui Sheng,Ju chao,Exact,28/06/2004,07/07/2004,Confirmed,Influenza - Avian,H5N1 HPAI,"domestic, chicken",8160,1850,1520,22000,,,,,
4058,Other,25.80167,113.05639,Asia,China,Hunan Sheng,Suxianqu,Unknown,23/01/2004,19/02/2004,Confirmed,Influenza - Avian,H5N1 HPAI,"domestic, duck",400,400,300,109200,,,,,
4002,Other,22.543447,114.057818,Asia,China,Guangdong Sheng,Shenzhen,Unknown,01/02/2004,01/02/2004,Confirmed,Influenza - Avian,H5N1 HPAI,"captive, swan",,66,66,142,,,,,
3996,Other,25.118,114.312,Asia,China,Guangdong Sheng,Huangkeng,Exact,06/02/2004,16/02/2004,Confirmed,Influenza - Avian,H5N1 HPAI,"domestic, unspecified bird, domestic, chicken, domestic, goose",,750,500,156458,,,,,
3994,Other,25.339,103.037,Asia,China,Yunnan Sheng,Songming,Exact,12/02/2004,16/02/2004,Confirmed,Influenza - Avian,H5N1 HPAI,"domestic, unspecified bird, domestic, duck, domestic, chicken",,219,219,82652,,,,,
3990,Other,30.083,115.938,Asia,China,Hubei Sheng,Huangmei,Exact,04/02/2004,16/02/2004,Confirmed,Influenza - Avian,H5N1 HPAI,"domestic, unspecified bird, domestic, chicken, domestic, duck, domestic, goose",,2290,2290,4580,,,,,
3962,Other,45.76667,123.76667,Asia,China,Jilin Sheng,Yanjiang,Unknown,14/02/2004,16/02/2004,Confirmed,Influenza - Avian,H5N1 HPAI,"domestic, chicken",,49,49,49,,,,,
3956,Other,29.65,91.1,Asia,China,Xizang Zizhiqu,Lhasa,Unknown,08/02/2004,16/02/2004,Confirmed,Influenza - Avian,H5N1 HPAI,"domestic, chicken",,425,425,425,,,,,
3932,Other,21.85,111.96667,Asia,China,Guangdong Sheng,Jiangcheng,Unknown,03/02/2004,12/02/2004,Confirmed,Influenza - Avian,H5N1 HPAI,"domestic, goose",,760,497,167732,,,,,
3928,Other,28.579,112.374,Asia,China,Hunan Sheng,Yuejiaqiao,Exact,27/01/2004,12/02/2004,Confirmed,Influenza - Avian,H5N1 HPAI,"domestic, duck, domestic, chicken, domestic, chicken",,321,296,120300,,,,,
3924,Other,27.27667,111.66806,Asia,China,Hunan Sheng,Niumasi,Unknown,27/01/2004,12/02/2004,Confirmed,Influenza - Avian,H5N1 HPAI,"domestic, duck, domestic, chicken, domestic, chicken",,840,457,58600,,,,,
3922,Other,29.83333,115.16667,Asia,China,Hubei Sheng,Xingguo,Unknown,02/02/2004,12/02/2004,Confirmed,Influenza - Avian,H5N1 HPAI,"domestic, chicken, domestic, duck",,86,86,24249,,,,,
3918,Other,30.26472,111.64639,Asia,China,Hubei Sheng,Chendian,Unknown,30/01/2004,12/02/2004,Confirmed,Influenza - Avian,H5N1 HPAI,"domestic, duck, domestic, chicken, domestic, chicken, domestic, goose",,187,187,15470,,,,,
3916,Other,30.06056,112.22417,Asia,China,Hubei Sheng,Gong An,Unknown,31/01/2004,12/02/2004,Confirmed,Influenza - Avian,H5N1 HPAI,"domestic, duck, domestic, chicken, domestic, chicken, domestic, goose",,264,264,25258,,,,,
3914,Other,29.9,113.4,Asia,China,Hubei Sheng,Hong Hu,Unknown,30/01/2004,12/02/2004,Confirmed,Influenza - Avian,H5N1 HPAI,"domestic, duck, domestic, chicken, domestic, chicken, domestic, goose",,638,638,56549,,,,,
3910,Other,29.85,115.55,Asia,China,Hubei Sheng,Wuxue,Unknown,26/01/2004,30/01/2004,Confirmed,Influenza - Avian,H5N1 HPAI,"domestic, duck, domestic, chicken, domestic, chicken, domestic, goose",,,1400,193321,,,,,
3906,Other,30.77111,111.32167,Asia,China,Hubei Sheng,Yichang,Unknown,28/01/2004,28/01/2004,Confirmed,Influenza - Avian,H5N1 HPAI,"domestic, duck, domestic, chicken, domestic, chicken",,,4703,19313,,,,,
3902,Other,23.55,116.35,Asia,China,Guangdong Sheng,Jieyang,Exact,30/01/2004,30/01/2004,Confirmed,Influenza - Avian,H5N1 HPAI,"domestic, unspecified bird, domestic, chicken, domestic, duck, domestic, goose",,2500,1300,90670,,,,,
3900,Media,26.732,110.629,Asia,China,Hunan Sheng,Wugang,Exact,26/01/2004,30/01/2004,Confirmed,Influenza - Avian,H5N1 HPAI,"domestic, duck, domestic, chicken, domestic, chicken, domestic, goose",,,1300,131600,,,,,
3898,Other,43.8,87.58333,Asia,China,Xinjiang Uygur Zizhiqu,Urumqi,Unknown,23/01/2004,10/02/2004,Confirmed,Influenza - Avian,H5N1 HPAI,"domestic, chicken",,,4058,15605,,,,,
3890,Other,34.56528,110.06639,Asia,China,Shaanxi Sheng,Huayin,Unknown,07/02/2004,10/02/2004,Confirmed,Influenza - Avian,H5N1 HPAI,"domestic, duck, domestic, chicken, domestic, chicken, domestic, goose",22700,377,377,59159,,,,,
3888,Media,22.81667,108.31667,Asia,China,Guangxi Zhuangzu Zizhiqu,Nanning,Unknown,07/02/2004,10/02/2004,Confirmed,Influenza - Avian,H5N1 HPAI,"domestic, duck, domestic, chicken, domestic, chicken, domestic, goose",,600,450,199192,,,,,
3884,Other,39.14222,117.17667,Asia,China,Tianjin Shi,Tianjin,Unknown,08/02/2004,10/02/2004,Confirmed,Influenza - Avian,H5N1 HPAI,"domestic, duck, domestic, chicken, domestic, chicken, domestic, goose",,236,236,45721,,,,,
3876,Other,21.697,110.904,Asia,China,Guangdong Sheng,Maoming,Exact,07/02/2004,10/02/2004,Confirmed,Influenza - Avian,H5N1 HPAI,"domestic, duck, domestic, chicken, domestic, chicken",,310,200,23498,,,,,
3872,Other,22.232,113.196,Asia,China,Guangdong Sheng,Doumen,Exact,07/02/2004,10/02/2004,Confirmed,Influenza - Avian,H5N1 HPAI,"domestic, duck, domestic, unspecified bird, domestic, chicken",,1140,2172,31172,,,,,
3862,Other,31.17833,115.03194,Asia,China,Hubei Sheng,Macheng,Unknown,05/02/2004,10/02/2004,Confirmed,Influenza - Avian,H5N1 HPAI,"domestic, duck, domestic, chicken, domestic, chicken",107532,6579,318,108250,,,,,
3858,Other,24.90583,102.49167,Asia,China,Yunnan Sheng,Lianran,Unknown,05/02/2004,10/02/2004,Confirmed,Influenza - Avian,H5N1 HPAI,"domestic, duck, domestic, chicken, domestic, chicken, domestic, goose",366,55,33,110586,,,,,
3854,Other,25.76333,102.52333,Asia,China,Yunnan Sheng,Tuanjie,Unknown,04/02/2004,10/02/2004,Confirmed,Influenza - Avian,H5N1 HPAI,"domestic, duck, domestic, quail, domestic, chicken, domestic, chicken",,8326,8326,15651,,,,,
3848,Other,28.48694,115.11361,Asia,China,Jiangxi Sheng,Wanxi,Unknown,02/02/2004,02/02/2004,Confirmed,Influenza - Avian,H5N1 HPAI,"domestic, duck, domestic, quail, domestic, chicken, domestic, chicken",,,400,1292733,,,,,
3842,Media,32.95389,114.62722,Asia,China,Henan Sheng,Pingyu,Unknown,02/02/2004,02/02/2004,Confirmed,Influenza - Avian,H5N1 HPAI,"domestic, chicken",2600,1500,790,1810,,,,,
3734,Other,22.9525,115.43333,Asia,China,Guangdong Sheng,Ketang,Unknown,28/01/2004,06/02/2004,Confirmed,Influenza - Avian,H5N1 HPAI,"domestic, duck",750,750,195,88607,,,,,
3730,Other,22.73333,111.45,Asia,China,Guangdong Sheng,Lishao,Unknown,05/02/2004,06/02/2004,Confirmed,Influenza - Avian,H5N1 HPAI,"domestic, duck, domestic, chicken, domestic, chicken",1252,1252,750,9957,,,,,
3724,Other,24.75861,103.26528,Asia,China,Yunnan Sheng,Lufu,Unknown,26/01/2004,06/02/2004,Confirmed,Influenza - Avian,H5N1 HPAI,"domestic, duck, domestic, chicken, domestic, chicken",7400,3474,2653,253389,,,,,
3720,Other,28.236,116.59,Asia,China,Jiangxi Sheng,Dongxiangxian,Exact,02/02/2004,06/02/2004,Confirmed,Influenza - Avian,H5N1 HPAI,"domestic, duck, domestic, unspecified bird, domestic, chicken",3696,841,585,56064,,,,,
3714,Media,31.675,118.48333,Asia,China,Anhui Sheng,Yushan,Unknown,05/02/2004,05/02/2004,Confirmed,Influenza - Avian,H5N1 HPAI,"domestic, chicken",,,18200,1585,,,,,
3710,Other,28.293,117.245,Asia,China,Jiangxi Sheng,Huangqiao,Exact,22/01/2004,05/02/2004,Confirmed,Influenza - Avian,H5N1 HPAI,"domestic, duck, domestic, chicken, domestic, chicken",8600,8600,8600,21955,,,,,
3704,Other,24.89333,102.79667,Asia,China,Yunnan Sheng,Chenggong,Unknown,20/01/2004,02/02/2004,Confirmed,Influenza - Avian,H5N1 HPAI,"domestic, duck, domestic, chicken",78000,78000,4820,145197,,,,,
3698,Other,36.22722,103.80083,Asia,China,Gansu Sheng,Zhonghe,Unknown,30/01/2004,08/02/2004,Confirmed,Influenza - Avian,H5N1 HPAI,"domestic, chicken",1200,400,200,2390,,,,,
3688,Other,25.015,102.744,Asia,China,Yunnan Sheng,Guandu,Exact,01/02/2004,05/02/2004,Confirmed,Influenza - Avian,H5N1 HPAI,"domestic, unspecified bird, domestic, chicken, domestic, quail",1598,1598,48206,2427994,,,,,
3660,Other,33.27,115.353,Asia,China,Anhui Sheng,Jieshou,Exact,28/01/2004,04/02/2004,Confirmed,Influenza - Avian,H5N1 HPAI,"domestic, chicken",,2700,2700,147953,,,,,
3656,Other,31.85667,112.15944,Asia,China,Hubei Sheng,Oumiao,Unknown,23/01/2004,03/02/2004,Confirmed,Influenza - Avian,H5N1 HPAI,"domestic, duck, domestic, chicken, domestic, chicken, domestic, goose",4200,2000,22,122775,,,,,
3652,Other,32.9,115.81667,Asia,China,Anhui Sheng,Fuyang,Unknown,26/01/2004,04/02/2004,Confirmed,Influenza - Avian,H5N1 HPAI,"domestic, chicken",372,11,11,,,,,,
3650,Other,29.256,113.277,Asia,China,Hunan Sheng,Wujiang,Exact,23/01/2004,04/02/2004,Confirmed,Influenza - Avian,H5N1 HPAI,"domestic, chicken, domestic, chicken",,2400,2380,6020,,,,,
3634,Other,34.15861,108.93583,Asia,China,Shaanxi Sheng,Weiqu,Unknown,30/01/2004,04/02/2004,Confirmed,Influenza - Avian,H5N1 HPAI,"domestic, duck, domestic, chicken, domestic, chicken, domestic, goose",5425,1919,1919,80144,,,,,
3610,Other,43.8,87.58333,Asia,China,Xinjiang Uygur Zizhiqu,Urumqi,Unknown,23/01/2004,02/02/2004,Confirmed,Influenza - Avian,H5N1 HPAI,"domestic, chicken",6400,4508,4508,2342,,,,,
3608,Other,28.889,120.047,Asia,China,Zhejiang Sheng,Yong kang,Exact,20/01/2004,02/02/2004,Confirmed,Influenza - Avian,H5N1 HPAI,"domestic, duck, domestic, chicken, domestic, chicken, domestic, goose",850,550,550,67789,,,,,
3598,Media,31.22222,121.45806,Asia,China,Shanghai Shi,Shanghai,Unknown,30/01/2004,30/01/2004,Confirmed,Influenza - Avian,H5N1 HPAI,"domestic, duck, domestic, chicken, domestic, chicken",,300,300,365000,,,,,
3594,Other,30.89306,119.41361,Asia,China,Anhui Sheng,Guangde,Unknown,30/01/2004,30/01/2004,Confirmed,Influenza - Avian,H5N1 HPAI,"domestic, duck, domestic, chicken",,,3700,35609,,,,,
3590,Other,23.672,116.646,Asia,China,Guangdong Sheng,Gugang,Exact,24/01/2004,31/01/2004,Confirmed,Influenza - Avian,H5N1 HPAI,"domestic, duck, domestic, chicken, domestic, chicken, domestic, goose",180,,80,7610,,,,,
3586,Other,30.4,114.83333,Asia,China,Hubei Sheng,Ezhou,Unknown,25/01/2004,31/01/2004,Confirmed,Influenza - Avian,H5N1 HPAI,"domestic, duck, domestic, chicken, domestic, goose",564,200,200,,,,,,
3574,Media,23.166,107.696,Asia,China,Guangxi Zhuangzu Zizhiqu,Longan,Exact,20/01/2004,26/01/2004,Confirmed,Influenza - Avian,H5N1 HPAI,"domestic, duck, domestic, chicken, domestic, chicken",,,280,14000,,,,,
